
[{"id":"1497608","latitude":13.800497,"longitude":100.58311,"name":"Bangkok Bank and Foreign Exchange Center","features":{"SURCHARGE_FREE":"UNKNOWN","RESTRICTED":"UNKNOWN","BRAILLE":"UNKNOWN","DRIVE_UP":"UNKNOWN","WALK_UP":"NO"},"preferred":false,"homeAddress":false,"address":{"streetAddress":"BBL LAT PHRAO SOI 99 BRANCH","locality":"Bangkok","region":"B","postalCode":"10310","country":"THA","formatted":"BBL LAT PHRAO SOI 99 BRANCH\n2739 Lat Phrao Rd., Wang Thonglang Bangkok\nBangkok, B 10310\nTHA","homeAddress":"false","preferred":"false"}},{"id":"1497670","latitude":13.800497,"longitude":100.58311,"name":"BANGKOK BANK AND FOREIGN EXCHANGE CENTER","features":{"SURCHARGE_FREE":"UNKNOWN","RESTRICTED":"UNKNOWN","BRAILLE":"UNKNOWN","DRIVE_UP":"UNKNOWN","WALK_UP":"NO"},"preferred":false,"homeAddress":false,"address":{"streetAddress":"BBL RAMA IX ROAD  BRANCH","locality":"BANGKOK","region":"B","postalCode":"10310","country":"THA","formatted":"BBL RAMA IX ROAD  BRANCH\n250 RAMA IX  ROAD   HUAYKWANG   BANGKOK\nBANGKOK, B 10310\nTHA","homeAddress":"false","preferred":"false"}},{"id":"1497555","latitude":13.736778,"longitude":100.56206,"name":"CITIBANK","features":{"SURCHARGE_FREE":"UNKNOWN","RESTRICTED":"UNKNOWN","BRAILLE":"UNKNOWN","DRIVE_UP":"UNKNOWN","WALK_UP":"NO"},"preferred":false,"homeAddress":false,"address":{"streetAddress":"399 INTERCHANGE 21 BUILDING","locality":"BANGKOK","region":"B","postalCode":"10110","country":"THA","formatted":"399 INTERCHANGE 21 BUILDING\n20TH FLOOR, SUKHUMVIT ROAD, KLONGTOEY NUA\nBANGKOK, B 10110\nTHA","homeAddress":"false","preferred":"false"}},{"id":"3735244","latitude":13.736808,"longitude":100.56203,"name":"Interchange 21","features":{"SURCHARGE_FREE":"UNKNOWN","RESTRICTED":"NO","BRAILLE":"NO","DRIVE_UP":"NO","WALK_UP":"NO"},"preferred":false,"homeAddress":false,"address":{"streetAddress":"399 Sukhumvit Road, Interchange 21 Building","locality":"Bangkok","region":"EMPTY","postalCode":"10110","country":"THA","formatted":"399 Sukhumvit Road, Interchange 21 Building\nKlongtoey Nua, Wattana\nBangkok, EMPTY 10110\nTHA","homeAddress":"false","preferred":"false"}},{"id":"3735245","latitude":13.736808,"longitude":100.56203,"name":"Interchange 21","features":{"SURCHARGE_FREE":"UNKNOWN","RESTRICTED":"NO","BRAILLE":"NO","DRIVE_UP":"NO","WALK_UP":"NO"},"preferred":false,"homeAddress":false,"address":{"streetAddress":"399 Sukhumvit Road, Interchange 21 Building","locality":"Bangkok","region":"EMPTY","postalCode":"10110","country":"THA","formatted":"399 Sukhumvit Road, Interchange 21 Building\nKlongtoey Nua, Wattana\nBangkok, EMPTY 10110\nTHA","homeAddress":"false","preferred":"false"}},{"id":"3735040","latitude":13.736672,"longitude":100.56171,"name":"Interchange 21","features":{"SURCHARGE_FREE":"UNKNOWN","RESTRICTED":"NO","BRAILLE":"NO","DRIVE_UP":"NO","WALK_UP":"NO"},"preferred":false,"homeAddress":false,"address":{"streetAddress":"399 Sukhumvit Road, Interchange 21 Building","locality":"Bangkok","region":"EMPTY","postalCode":"10110","country":"THA","formatted":"399 Sukhumvit Road, Interchange 21 Building\nKlongtoey Nua, Wattana\nBangkok, EMPTY 10110\nTHA","homeAddress":"false","preferred":"false"}},{"id":"3735193","latitude":13.736672,"longitude":100.56171,"name":"Interchange 21","features":{"SURCHARGE_FREE":"UNKNOWN","RESTRICTED":"NO","BRAILLE":"NO","DRIVE_UP":"NO","WALK_UP":"NO"},"preferred":false,"homeAddress":false,"address":{"streetAddress":"399 Sukhumvit Road, Interchange 21 Building","locality":"Bangkok","region":"EMPTY","postalCode":"10110","country":"THA","formatted":"399 Sukhumvit Road, Interchange 21 Building\nKlongtoey Nua, Wattana\nBangkok, EMPTY 10110\nTHA","homeAddress":"false","preferred":"false"}},{"id":"3735198","latitude":13.736672,"longitude":100.56171,"name":"Interchange 21","features":{"SURCHARGE_FREE":"UNKNOWN","RESTRICTED":"NO","BRAILLE":"NO","DRIVE_UP":"NO","WALK_UP":"NO"},"preferred":false,"homeAddress":false,"address":{"streetAddress":"399 Sukhumvit Road, Interchange 21 Building","locality":"Bangkok","region":"EMPTY","postalCode":"10110","country":"THA","formatted":"399 Sukhumvit Road, Interchange 21 Building\nKlongtoey Nua, Wattana\nBangkok, EMPTY 10110\nTHA","homeAddress":"false","preferred":"false"}},{"id":"3735196","latitude":13.736672,"longitude":100.56171,"name":"Interchange 21","features":{"SURCHARGE_FREE":"UNKNOWN","RESTRICTED":"NO","BRAILLE":"NO","DRIVE_UP":"NO","WALK_UP":"NO"},"preferred":false,"homeAddress":false,"address":{"streetAddress":"399 Sukhumvit Road, Interchange 21 Building","locality":"Bangkok","region":"EMPTY","postalCode":"10110","country":"THA","formatted":"399 Sukhumvit Road, Interchange 21 Building\nKlongtoey Nua, Wattana\nBangkok, EMPTY 10110\nTHA","homeAddress":"false","preferred":"false"}},{"id":"3735249","latitude":13.736672,"longitude":100.56171,"name":"Interchange 21","features":{"SURCHARGE_FREE":"UNKNOWN","RESTRICTED":"NO","BRAILLE":"NO","DRIVE_UP":"NO","WALK_UP":"NO"},"preferred":false,"homeAddress":false,"address":{"streetAddress":"399 Sukhumvit Road, Interchange 21 Building","locality":"Bangkok","region":"EMPTY","postalCode":"10110","country":"THA","formatted":"399 Sukhumvit Road, Interchange 21 Building\nKlongtoey Nua, Wattana\nBangkok, EMPTY 10110\nTHA","homeAddress":"false","preferred":"false"}},{"id":"3735195","latitude":13.736672,"longitude":100.56171,"name":"Interchange 21","features":{"SURCHARGE_FREE":"UNKNOWN","RESTRICTED":"NO","BRAILLE":"NO","DRIVE_UP":"NO","WALK_UP":"NO"},"preferred":false,"homeAddress":false,"address":{"streetAddress":"399 Sukhumvit Road, Interchange 21 Building","locality":"Bangkok","region":"EMPTY","postalCode":"10110","country":"THA","formatted":"399 Sukhumvit Road, Interchange 21 Building\nKlongtoey Nua, Wattana\nBangkok, EMPTY 10110\nTHA","homeAddress":"false","preferred":"false"}},{"id":"1497603","latitude":13.808686,"longitude":100.57555,"name":"Bangkok Bank and Foreign Exchange Center","features":{"SURCHARGE_FREE":"UNKNOWN","RESTRICTED":"UNKNOWN","BRAILLE":"UNKNOWN","DRIVE_UP":"UNKNOWN","WALK_UP":"NO"},"preferred":false,"homeAddress":false,"address":{"streetAddress":"BBL BANGKHEN BRANCH","locality":"Bangkok","region":"B","postalCode":"10900","country":"THA","formatted":"BBL BANGKHEN BRANCH\n2124 Phaholyothin Rd., Senanilom Bangkok\nBangkok, B 10900\nTHA","homeAddress":"false","preferred":"false"}},{"id":"1497593","latitude":13.667771,"longitude":100.636604,"name":"Bangkok Bank and Foreign Exchange Center","features":{"SURCHARGE_FREE":"UNKNOWN","RESTRICTED":"UNKNOWN","BRAILLE":"UNKNOWN","DRIVE_UP":"UNKNOWN","WALK_UP":"NO"},"preferred":false,"homeAddress":false,"address":{"streetAddress":"BBL BANGNA BRANCH","locality":"Bangkok","region":"B","postalCode":"10260","country":"THA","formatted":"BBL BANGNA BRANCH\n947/2 Moo 12 Bangna City Complex, Bangna-Trad KM 3 Bangkok\nBangkok, B 10260\nTHA","homeAddress":"false","preferred":"false"}},{"id":"1497596","latitude":13.726532,"longitude":100.5304,"name":"Bangkok Bank and Foreign Exchange Center","features":{"SURCHARGE_FREE":"UNKNOWN","RESTRICTED":"UNKNOWN","BRAILLE":"UNKNOWN","DRIVE_UP":"UNKNOWN","WALK_UP":"NO"},"preferred":false,"homeAddress":false,"address":{"streetAddress":"BBL BANG LAMPHU BRANCH","locality":"Bangkok","region":"B","postalCode":"10200","country":"THA","formatted":"BBL BANG LAMPHU BRANCH\n109 Samsen Rd., Samphraya, Phranakorn, Bangkok\nBangkok, B 10200\nTHA","homeAddress":"false","preferred":"false"}},{"id":"1497671","latitude":13.726532,"longitude":100.5304,"name":"BANGKOK BANK AND FOREIGN EXCHANGE CENTER","features":{"SURCHARGE_FREE":"UNKNOWN","RESTRICTED":"UNKNOWN","BRAILLE":"UNKNOWN","DRIVE_UP":"UNKNOWN","WALK_UP":"NO"},"preferred":false,"homeAddress":false,"address":{"streetAddress":"BBL BANGRAK  BRANCH","locality":"BANGKOK","region":"B","postalCode":"10500","country":"THA","formatted":"BBL BANGRAK  BRANCH\n1576 CHARENKRUNG RAOD., BANGRAK BANGKOK\nBANGKOK, B 10500\nTHA","homeAddress":"false","preferred":"false"}},{"id":"1497597","latitude":13.726532,"longitude":100.5304,"name":"Bangkok Bank and Foreign Exchange Center","features":{"SURCHARGE_FREE":"UNKNOWN","RESTRICTED":"UNKNOWN","BRAILLE":"UNKNOWN","DRIVE_UP":"UNKNOWN","WALK_UP":"NO"},"preferred":false,"homeAddress":false,"address":{"streetAddress":"BBL SUANSIAM BRANCH","locality":"Bangkok","region":"B","postalCode":"10230","country":"THA","formatted":"BBL SUANSIAM BRANCH\n99/1 Serithat Rd., Kannayao Bangkok\nBangkok, B 10230\nTHA","homeAddress":"false","preferred":"false"}},{"id":"1497591","latitude":13.689795,"longitude":100.550095,"name":"Bangkok Bank and Foreign Exchange Center","features":{"SURCHARGE_FREE":"UNKNOWN","RESTRICTED":"UNKNOWN","BRAILLE":"UNKNOWN","DRIVE_UP":"UNKNOWN","WALK_UP":"NO"},"preferred":false,"homeAddress":false,"address":{"streetAddress":"BBL RAT BURANA BRANCH","locality":"Bangkok","region":"B","postalCode":"10140","country":"THA","formatted":"BBL RAT BURANA BRANCH\n222/1 Moo 8 Suksawad Rd., Rat Burana Bangkok\nBangkok, B 10140\nTHA","homeAddress":"false","preferred":"false"}},{"id":"1497602","latitude":13.7553835,"longitude":100.52458,"name":"Bangkok Bank and Foreign Exchange Center","features":{"SURCHARGE_FREE":"UNKNOWN","RESTRICTED":"UNKNOWN","BRAILLE":"UNKNOWN","DRIVE_UP":"UNKNOWN","WALK_UP":"NO"},"preferred":false,"homeAddress":false,"address":{"streetAddress":"BBL RATCHATHEWI BRANCH","locality":"Bangkok","region":"B","postalCode":"10400","country":"THA","formatted":"BBL RATCHATHEWI BRANCH\n128/17-18 Phayathai Plaza Bldg.  Phayathai Rd., Ratchathewi Bangkok\nBangkok, B 10400\nTHA","homeAddress":"false","preferred":"false"}},{"id":"1513494","latitude":13.860506,"longitude":100.66813,"name":"CAJA MURCIA","features":{"SURCHARGE_FREE":"UNKNOWN","RESTRICTED":"UNKNOWN","BRAILLE":"UNKNOWN","DRIVE_UP":"UNKNOWN","WALK_UP":"UNKNOWN"},"preferred":false,"homeAddress":false,"address":{"streetAddress":"CARRETERA CARRETERA, 27","locality":"VALENTIN","region":"MU","postalCode":"30420","country":"ESP","formatted":"CARRETERA CARRETERA, 27\n\nVALENTIN, MU 30420\nESP","homeAddress":"false","preferred":"false"}},{"id":"1823947","latitude":13.860506,"longitude":100.66813,"name":"CAJA MURCIA","features":{"SURCHARGE_FREE":"UNKNOWN","RESTRICTED":"UNKNOWN","BRAILLE":"UNKNOWN","DRIVE_UP":"UNKNOWN","WALK_UP":"NO"},"preferred":false,"homeAddress":false,"address":{"streetAddress":"CARRETERA CARRETERA, 27","locality":"VALENTIN","region":"MU","postalCode":"30420","country":"ESP","formatted":"CARRETERA CARRETERA, 27\n\nVALENTIN, MU 30420\nESP","homeAddress":"false","preferred":"false"}},{"id":"3279257","latitude":13.775433,"longitude":100.51274,"name":"AYALA CENTER","features":{"SURCHARGE_FREE":"UNKNOWN","RESTRICTED":"UNKNOWN","BRAILLE":"UNKNOWN","DRIVE_UP":"UNKNOWN","WALK_UP":"UNKNOWN"},"preferred":false,"homeAddress":false,"address":{"streetAddress":"DUSIT HOTEL NIKKO","locality":"MAKATI CITY","region":"MNL","postalCode":"0","country":"PHL","formatted":"DUSIT HOTEL NIKKO\n\nMAKATI CITY, MNL 0\nPHL","homeAddress":"false","preferred":"false"}},{"id":"2428849","latitude":13.775433,"longitude":100.51274,"name":"MAKATI CITY","features":{"SURCHARGE_FREE":"UNKNOWN","RESTRICTED":"UNKNOWN","BRAILLE":"UNKNOWN","DRIVE_UP":"UNKNOWN","WALK_UP":"NO"},"preferred":false,"homeAddress":false,"address":{"streetAddress":"DUSIT HOTEL NIKKO, AYALA CENTER","locality":"MAKATI CITY","region":"MNL","postalCode":"0","country":"PHL","formatted":"DUSIT HOTEL NIKKO, AYALA CENTER\n\nMAKATI CITY, MNL 0\nPHL","homeAddress":"false","preferred":"false"}},{"id":"1497587","latitude":13.739694,"longitude":100.50511,"name":"Bangkok Bank and Foreign Exchange Center","features":{"SURCHARGE_FREE":"UNKNOWN","RESTRICTED":"UNKNOWN","BRAILLE":"UNKNOWN","DRIVE_UP":"UNKNOWN","WALK_UP":"NO"},"preferred":false,"homeAddress":false,"address":{"streetAddress":"BBL RATCHAWONG BRANCH","locality":"Bangkok","region":"B","postalCode":"10100","country":"THA","formatted":"BBL RATCHAWONG BRANCH\n245-249 Ratchawong Rd., Chakkrawak, Samphanthawong Bangkok\nBangkok, B 10100\nTHA","homeAddress":"false","preferred":"false"}}]